[
  {"name": "Mumbai", "lat": 19.0760, "lng": 72.8777},
  {"name": "Delhi", "lat": 28.6139, "lng": 77.2090},
  {"name": "Bangalore", "lat": 12.9716, "lng": 77.5946},
  {"name": "Hyderabad", "lat": 17.3850, "lng": 78.4867},
  {"name": "Ahmedabad", "lat": 23.0225, "lng": 72.5714},
  {"name": "Chennai", "lat": 13.0827, "lng": 80.2707},
  {"name": "Kolkata", "lat": 22.5726, "lng": 88.3639},
  {"name": "Surat", "lat": 21.1702, "lng": 72.8311},
  {"name": "Pune", "lat": 18.5204, "lng": 73.8567},
  {"name": "Jaipur", "lat": 26.9124, "lng": 75.7873},
  {"name": "Lucknow", "lat": 26.8467, "lng": 80.9462},
  {"name": "Kanpur", "lat": 26.4499, "lng": 80.3319},
  {"name": "Nagpur", "lat": 21.1458, "lng": 79.0882},
  {"name": "Indore", "lat": 22.7196, "lng": 75.8577},
  {"name": "Thane", "lat": 19.2183, "lng": 72.9781},
  {"name": "Bhopal", "lat": 23.2599, "lng": 77.4126},
  {"name": "Visakhapatnam", "lat": 17.6868, "lng": 83.2185},
  {"name": "Pimpri-Chinchwad", "lat": 18.6298, "lng": 73.7997},
  {"name": "Patna", "lat": 25.5941, "lng": 85.1376},
  {"name": "Vadodara", "lat": 22.3072, "lng": 73.1812},
  {"name": "Ghaziabad", "lat": 28.6692, "lng": 77.4538},
  {"name": "Ludhiana", "lat": 30.9010, "lng": 75.8573},
  {"name": "Agra", "lat": 27.1767, "lng": 78.0081},
  {"name": "Nashik", "lat": 19.9975, "lng": 73.7898},
  {"name": "Faridabad", "lat": 28.4089, "lng": 77.3178},
  {"name": "Meerut", "lat": 28.9845, "lng": 77.7064},
  {"name": "Rajkot", "lat": 22.3039, "lng": 70.8022},
  {"name": "Kalyan-Dombivli", "lat": 19.2437, "lng": 73.1350},
  {"name": "Vasai-Virar", "lat": 19.3919, "lng": 72.8397},
  {"name": "Varanasi", "lat": 25.3176, "lng": 82.9739},
  {"name": "Srinagar", "lat": 34.0837, "lng": 74.7973},
  {"name": "Aurangabad", "lat": 19.8762, "lng": 75.3433},
  {"name": "Dhanbad", "lat": 23.7957, "lng": 86.4304},
  {"name": "Amritsar", "lat": 31.6340, "lng": 74.8723},
  {"name": "Navi Mumbai", "lat": 19.0330, "lng": 73.0297},
  {"name": "Allahabad", "lat": 25.4358, "lng": 81.8463},
  {"name": "Howrah", "lat": 22.5769, "lng": 88.3186},
  {"name": "Gwalior", "lat": 26.2183, "lng": 78.1828},
  {"name": "Jabalpur", "lat": 23.1815, "lng": 79.9864},
  {"name": "Coimbatore", "lat": 11.0168, "lng": 76.9558},
  {"name": "Vijayawada", "lat": 16.5062, "lng": 80.6480},
  {"name": "Madurai", "lat": 9.9252, "lng": 78.1198},
  {"name": "Raipur", "lat": 21.2514, "lng": 81.6296},
  {"name": "Kota", "lat": 25.2138, "lng": 75.8648},
  {"name": "Guwahati", "lat": 26.1158, "lng": 91.7086},
  {"name": "Chandigarh", "lat": 30.7333, "lng": 76.7794},
  {"name": "Solapur", "lat": 17.6599, "lng": 75.9064},
  {"name": "Hubli-Dharwad", "lat": 15.3647, "lng": 75.1240},
  {"name": "Bareilly", "lat": 28.3670, "lng": 79.4304},
  {"name": "Moradabad", "lat": 28.8351, "lng": 78.7749},
  {"name": "Mysore", "lat": 12.2958, "lng": 76.6394},
  {"name": "Gurgaon", "lat": 28.4595, "lng": 77.0266},
  {"name": "Aligarh", "lat": 27.8974, "lng": 78.0880},
  {"name": "Jalandhar", "lat": 31.3260, "lng": 75.5762},
  {"name": "Tiruchirappalli", "lat": 10.7905, "lng": 78.7047},
  {"name": "Bhubaneswar", "lat": 20.2961, "lng": 85.8245},
  {"name": "Salem", "lat": 11.6643, "lng": 78.1460},
  {"name": "Warangal", "lat": 17.9689, "lng": 79.5941},
  {"name": "Guntur", "lat": 16.3067, "lng": 80.4365},
  {"name": "Bhiwandi", "lat": 19.2813, "lng": 73.0483},
  {"name": "Saharanpur", "lat": 29.9640, "lng": 77.5460},
  {"name": "Gorakhpur", "lat": 26.7606, "lng": 83.3732},
  {"name": "Bikaner", "lat": 28.0229, "lng": 73.3119},
  {"name": "Amravati", "lat": 20.9320, "lng": 77.7523},
  {"name": "Noida", "lat": 28.5355, "lng": 77.3910},
  {"name": "Jamshedpur", "lat": 22.8046, "lng": 86.2029},
  {"name": "Bhilai", "lat": 21.1938, "lng": 81.3509},
  {"name": "Cuttack", "lat": 20.4625, "lng": 85.8830},
  {"name": "Firozabad", "lat": 27.1500, "lng": 78.4000},
  {"name": "Kochi", "lat": 9.9312, "lng": 76.2673},
  {"name": "Nellore", "lat": 14.4426, "lng": 79.9865},
  {"name": "Bhavnagar", "lat": 21.7645, "lng": 72.1519},
  {"name": "Dehradun", "lat": 30.3165, "lng": 78.0322},
  {"name": "Durgapur", "lat": 23.4846, "lng": 87.3217},
  {"name": "Asansol", "lat": 23.6739, "lng": 86.9524},
  {"name": "Rourkela", "lat": 22.2604, "lng": 84.8536},
  {"name": "Nanded", "lat": 19.1383, "lng": 77.3210},
  {"name": "Gulbarga", "lat": 17.3297, "lng": 76.8248},
  {"name": "Ajmer", "lat": 26.4499, "lng": 74.6399},
  {"name": "Akola", "lat": 20.7002, "lng": 77.0082},
  {"name": "Jamnagar", "lat": 22.4707, "lng": 70.0577},
  {"name": "Ujjain", "lat": 23.1760, "lng": 75.7885},
  {"name": "Loni", "lat": 28.7500, "lng": 77.2833},
  {"name": "Siliguri", "lat": 26.7271, "lng": 88.3953},
  {"name": "Jhansi", "lat": 25.4484, "lng": 78.5685},
  {"name": "Ulhasnagar", "lat": 19.2215, "lng": 73.1645},
  {"name": "Jammu", "lat": 32.7266, "lng": 74.8570},
  {"name": "Sangli-Miraj & Kupwad", "lat": 16.8524, "lng": 74.5815},
  {"name": "Mangalore", "lat": 12.9141, "lng": 74.8560},
  {"name": "Erode", "lat": 11.3410, "lng": 77.7172},
  {"name": "Belgaum", "lat": 15.8497, "lng": 74.4977},
  {"name": "Ambattur", "lat": 13.1143, "lng": 80.1548},
  {"name": "Tirunelveli", "lat": 8.7139, "lng": 77.7567},
  {"name": "Malegaon", "lat": 20.5517, "lng": 74.5089},
  {"name": "Gaya", "lat": 24.7914, "lng": 85.0002},
  {"name": "Jalgaon", "lat": 21.0077, "lng": 75.5626},
  {"name": "Udaipur", "lat": 24.5854, "lng": 73.7125},
  {"name": "Maheshtala", "lat": 22.5085, "lng": 88.2530},
  {"name": "Tirupur", "lat": 11.1085, "lng": 77.3411},
  {"name": "Davanagere", "lat": 14.4644, "lng": 75.9218},
  {"name": "Kozhikode", "lat": 11.2588, "lng": 75.7804},
  {"name": "Kurnool", "lat": 15.8281, "lng": 78.0373},
  {"name": "Rajpur Sonarpur", "lat": 22.4337, "lng": 88.4010},
  {"name": "Bokaro", "lat": 23.6693, "lng": 86.1511},
  {"name": "South Dumdum", "lat": 22.6136, "lng": 88.3963},
  {"name": "Bellary", "lat": 15.1394, "lng": 76.9214},
  {"name": "Patiala", "lat": 30.3398, "lng": 76.3869},
  {"name": "Gopalpur", "lat": 22.6200, "lng": 88.4100},
  {"name": "Agartala", "lat": 23.8315, "lng": 91.2868},
  {"name": "Bhagalpur", "lat": 25.2425, "lng": 86.9718},
  {"name": "Muzaffarnagar", "lat": 29.4714, "lng": 77.7035},
  {"name": "Bhatpara", "lat": 22.8700, "lng": 88.4100},
  {"name": "Panihati", "lat": 22.6900, "lng": 88.3700},
  {"name": "Latur", "lat": 18.4088, "lng": 76.5604},
  {"name": "Dhule", "lat": 20.9030, "lng": 74.7749},
  {"name": "Rohtak", "lat": 28.8955, "lng": 76.6066},
  {"name": "Sagar", "lat": 23.8388, "lng": 78.7378},
  {"name": "Korba", "lat": 22.3550, "lng": 82.7214},
  {"name": "Bhilwara", "lat": 25.3407, "lng": 74.6313},
  {"name": "Berhampur", "lat": 19.3150, "lng": 84.7941},
  {"name": "Muzaffarpur", "lat": 26.1209, "lng": 85.3647},
  {"name": "Ahmednagar", "lat": 19.0948, "lng": 74.7480},
  {"name": "Mathura", "lat": 27.4924, "lng": 77.6737},
  {"name": "Kollam", "lat": 8.8932, "lng": 76.6141},
  {"name": "Avadi", "lat": 13.1152, "lng": 80.1030},
  {"name": "Kadapa", "lat": 14.4673, "lng": 78.8242},
  {"name": "Kamarhati", "lat": 22.6700, "lng": 88.3700},
  {"name": "Sambalpur", "lat": 21.4669, "lng": 83.9812},
  {"name": "Bilaspur", "lat": 22.0774, "lng": 82.1399},
  {"name": "Shahjahanpur", "lat": 27.8824, "lng": 79.9130},
  {"name": "Satara", "lat": 17.6805, "lng": 73.9803},
  {"name": "Bijapur", "lat": 16.8302, "lng": 75.7100},
  {"name": "Rampur", "lat": 28.8124, "lng": 79.0232},
  {"name": "Shimoga", "lat": 13.9299, "lng": 75.5681},
  {"name": "Chandrapur", "lat": 19.9546, "lng": 79.2961},
  {"name": "Junagadh", "lat": 21.5222, "lng": 70.4579},
  {"name": "Thrissur", "lat": 10.5276, "lng": 76.2144},
  {"name": "Alwar", "lat": 27.5530, "lng": 76.6346},
  {"name": "Bardhaman", "lat": 23.2324, "lng": 87.8615},
  {"name": "Kulti", "lat": 23.7300, "lng": 86.8500},
  {"name": "Nizamabad", "lat": 18.6725, "lng": 78.0941},
  {"name": "Parbhani", "lat": 19.2618, "lng": 76.7758},
  {"name": "Tumkur", "lat": 13.3392, "lng": 77.1140},
  {"name": "Khammam", "lat": 17.2473, "lng": 80.1514},
  {"name": "Uzhavarkarai", "lat": 11.9327, "lng": 79.7891},
  {"name": "Bihar Sharif", "lat": 25.1973, "lng": 85.5181},
  {"name": "Panipat", "lat": 29.3909, "lng": 76.9635},
  {"name": "Darbhanga", "lat": 26.1542, "lng": 85.8918},
  {"name": "Bally", "lat": 22.6500, "lng": 88.3400},
  {"name": "Aizawl", "lat": 23.7307, "lng": 92.7173},
  {"name": "Dewas", "lat": 22.9623, "lng": 76.0507},
  {"name": "Ichalkaranji", "lat": 16.7028, "lng": 74.4651},
  {"name": "Karnal", "lat": 29.6857, "lng": 76.9905},
  {"name": "Bathinda", "lat": 30.2110, "lng": 74.9455},
  {"name": "Jalna", "lat": 19.8297, "lng": 75.8800},
  {"name": "Eluru", "lat": 16.7107, "lng": 81.1035},
  {"name": "Barasat", "lat": 22.7212, "lng": 88.4849},
  {"name": "Kirari Suleman Nagar", "lat": 28.7077, "lng": 77.0500},
  {"name": "Purnia", "lat": 25.7771, "lng": 87.4753},
  {"name": "Satna", "lat": 24.6005, "lng": 80.8322},
  {"name": "Mau", "lat": 25.9416, "lng": 83.5615},
  {"name": "Sonipat", "lat": 28.9931, "lng": 77.0178},
  {"name": "Farrukhabad", "lat": 27.3828, "lng": 79.5855},
  {"name": "Durg", "lat": 21.1905, "lng": 81.2849},
  {"name": "Imphal", "lat": 24.8170, "lng": 93.9368},
  {"name": "Ratlam", "lat": 23.3315, "lng": 75.0367},
  {"name": "Hapur", "lat": 28.7237, "lng": 77.7758},
  {"name": "Anantapur", "lat": 14.6819, "lng": 77.6006},
  {"name": "Arrah", "lat": 25.5560, "lng": 84.6601},
  {"name": "Karimnagar", "lat": 18.4386, "lng": 79.1288},
  {"name": "Etawah", "lat": 26.7776, "lng": 79.0286},
  {"name": "Ambernath", "lat": 19.1825, "lng": 73.1926},
  {"name": "North Dumdum", "lat": 22.6515, "lng": 88.4078},
  {"name": "Bharatpur", "lat": 27.2152, "lng": 77.5030},
  {"name": "Begusarai", "lat": 25.4184, "lng": 86.1272},
  {"name": "New Delhi", "lat": 28.6139, "lng": 77.2090},
  {"name": "Gandhidham", "lat": 23.0768, "lng": 70.1332},
  {"name": "Baranagar", "lat": 22.6400, "lng": 88.3700},
  {"name": "Tiruvottiyur", "lat": 13.1600, "lng": 80.3000},
  {"name": "Pondicherry", "lat": 11.9416, "lng": 79.8083},
  {"name": "Deoghar", "lat": 24.4845, "lng": 86.6946},
  {"name": "Bhalswa Jahangir Pur", "lat": 28.7300, "lng": 77.1600},
  {"name": "Raichur", "lat": 16.2120, "lng": 77.3556},
  {"name": "Khandwa", "lat": 21.8252, "lng": 76.3530},
  {"name": "Nadiad", "lat": 22.6916, "lng": 72.8633},
  {"name": "Sambhal", "lat": 28.5904, "lng": 78.5718},
  {"name": "Nagaon", "lat": 26.3484, "lng": 92.6838},
  {"name": "Thanjavur", "lat": 10.7852, "lng": 79.1391},
  {"name": "Khowai", "lat": 24.0621, "lng": 91.6053},
  {"name": "Jagtial", "lat": 18.7900, "lng": 78.9100},
  {"name": "Suryapet", "lat": 17.1423, "lng": 79.6236},
  {"name": "Mirzapur", "lat": 25.1462, "lng": 82.5696},
  {"name": "Pallavaram", "lat": 12.9675, "lng": 80.1491},
  {"name": "Secunderabad", "lat": 17.4399, "lng": 78.4983},
  {"name": "Haldia", "lat": 22.0667, "lng": 88.0698},
  {"name": "Kharagpur", "lat": 22.3302, "lng": 87.3237},
  {"name": "Nagercoil", "lat": 8.1833, "lng": 77.4119},
  {"name": "Puri", "lat": 19.8135, "lng": 85.8312},
  {"name": "Vellore", "lat": 12.9165, "lng": 79.1325},
  {"name": "Udupi", "lat": 13.3409, "lng": 74.7421},
  {"name": "Hospet", "lat": 15.2689, "lng": 76.3909},
  {"name": "Porbandar", "lat": 21.6417, "lng": 69.6093},
  {"name": "Mahabubnagar", "lat": 16.7388, "lng": 77.9941},
  {"name": "Anand", "lat": 22.5645, "lng": 72.9289},
  {"name": "Katihar", "lat": 25.5532, "lng": 87.5714},
  {"name": "Shimla", "lat": 31.1048, "lng": 77.1734},
  {"name": "Gangtok", "lat": 27.3314, "lng": 88.6138},
  {"name": "Itanagar", "lat": 27.0844, "lng": 93.6053},
  {"name": "Kohima", "lat": 25.6751, "lng": 94.1086},
  {"name": "Shillong", "lat": 25.5788, "lng": 91.8933},
  {"name": "Daman", "lat": 20.4283, "lng": 72.8397},
  {"name": "Silvassa", "lat": 20.2765, "lng": 73.0083},
  {"name": "Kavaratti", "lat": 10.5667, "lng": 72.6417},
  {"name": "Port Blair", "lat": 11.6234, "lng": 92.7265}
]
